,City,Country,Max Temp,Humidity,Cloudiness,Wind Speed,Date,Latitude,Longitude
0,kapaa,US,27.0,69,20,9.3,1605153958,22.08,-159.32
1,venice,US,26.11,94,90,8.7,1605153939,27.1,-82.45
2,hami,CN,10.16,40,0,1.38,1605153959,42.8,93.45
3,indian head,US,20.56,100,75,4.02,1605153959,38.6,-77.16
4,albany,US,16.11,81,100,3.25,1605153960,42.6,-73.97
5,mataura,NZ,14.44,79,40,8.49,1605153960,-46.19,168.86
6,saint-philippe,RE,25.0,57,20,2.6,1605153960,-21.36,55.77
7,laguna,US,10.0,75,1,0.6,1605153961,38.42,-121.42
8,vestmanna,FO,5.0,86,93,6.2,1605153961,62.16,-7.17
9,christchurch,NZ,17.0,59,30,6.2,1605153867,-43.53,172.63
10,gimli,CA,-5.0,79,100,4.1,1605153961,50.63,-96.99
11,bilibino,RU,-18.13,90,100,1.15,1605153961,68.05,166.44
12,punta arenas,CL,9.0,76,0,3.6,1605153961,-53.15,-70.92
13,naryan-mar,RU,-4.54,97,86,5.32,1605153962,67.67,53.09
14,jiayuguan,CN,7.07,40,54,2.67,1605153687,39.82,98.3
15,ushuaia,AR,10.0,71,40,6.2,1605153962,-54.8,-68.3
16,cherskiy,RU,-14.23,95,100,3.52,1605153962,68.75,161.3
17,asfi,MA,19.48,60,100,2.5,1605153962,32.3,-9.24
18,bereznik,RU,-0.06,96,92,4.07,1605153962,62.86,42.71
19,beringovskiy,RU,-6.49,92,100,4.53,1605153962,63.05,179.32
20,teguise,ES,20.0,82,0,2.6,1605153962,29.06,-13.56
21,ishikari,JP,10.0,61,20,3.1,1605153963,43.24,141.35
22,port lincoln,AU,17.34,61,92,8.5,1605153963,-34.73,135.87
23,gararu,BR,21.9,83,46,2.07,1605153963,-9.97,-37.08
24,abu zabad,SD,21.35,25,0,5.92,1605153963,12.35,29.25
25,mahebourg,MU,23.0,83,40,2.1,1605153963,-20.41,57.7
26,saskylakh,RU,-20.83,89,100,1.64,1605153963,71.92,114.08
27,port blair,IN,28.72,73,43,8.67,1605153963,11.67,92.75
28,wajima,JP,12.0,71,40,4.1,1605153963,37.4,136.9
29,nikolskoye,RU,6.0,93,90,3.0,1605153963,59.7,30.79
30,tuktoyaktuk,CA,-17.0,77,75,3.6,1605153964,69.45,-133.04
31,busselton,AU,17.22,71,92,3.13,1605153964,-33.65,115.33
32,klaksvik,FO,5.0,86,100,6.2,1605153964,62.23,-6.59
33,chokurdakh,RU,-25.51,91,79,1.24,1605153964,70.63,147.92
34,la brea,HN,23.65,91,68,0.77,1605153964,15.8,-85.97
35,hilo,US,26.0,65,90,3.6,1605153964,19.73,-155.09
36,saint-pierre,RE,25.0,57,20,2.6,1605153964,-21.34,55.48
37,hermanus,ZA,16.67,82,0,2.24,1605153965,-34.42,19.23
38,sioux lookout,CA,-3.0,79,90,2.6,1605153672,50.1,-91.92
39,dikson,RU,-15.32,94,97,1.73,1605153965,73.51,80.55
40,ribeira grande,PT,16.55,57,100,2.59,1605153965,38.52,-28.7
41,lapeer,US,3.0,74,1,2.1,1605153733,43.05,-83.32
42,vila,PT,9.44,90,99,1.58,1605153965,42.03,-8.16
43,moose factory,CA,-6.0,92,1,3.1,1605153965,51.26,-80.61
44,halifax,CA,16.11,93,100,8.2,1605153702,44.65,-63.57
45,vilhena,BR,20.0,98,100,0.99,1605153965,-12.74,-60.15
46,bethel,US,18.33,100,90,1.5,1605153966,41.37,-73.41
47,new norfolk,AU,22.78,49,96,2.68,1605153966,-42.78,147.06
48,rikitea,PF,22.46,75,22,8.75,1605153966,-23.12,-134.97
49,clyde river,CA,-11.0,85,90,13.9,1605153966,70.47,-68.59
50,mala,PE,17.32,80,88,2.0,1605153966,-12.66,-76.63
51,azua,DO,15.56,1,87,1.85,1605153966,18.45,-70.73
52,east london,ZA,15.0,82,0,2.6,1605153967,-33.02,27.91
53,rio blanco,MX,18.79,77,64,0.24,1605153967,18.83,-97.15
54,buchanan,LR,25.18,85,100,1.46,1605153911,5.88,-10.05
55,mar del plata,AR,17.22,82,0,2.6,1605153738,-38.0,-57.56
56,port alfred,ZA,17.11,80,0,7.3,1605153967,-33.59,26.89
57,khatanga,RU,-23.87,91,60,0.73,1605153967,71.97,102.5
58,hobart,AU,24.0,41,40,11.3,1605153954,-42.88,147.33
59,arraial do cabo,BR,22.73,93,100,3.93,1605153711,-22.97,-42.03
60,norman wells,CA,-25.0,83,20,1.5,1605153967,65.28,-126.83
61,tecpan,GT,19.0,88,75,1.0,1605153968,14.76,-90.99
62,jamestown,US,6.67,87,90,5.1,1605153838,42.1,-79.24
63,coihaique,CL,12.0,76,75,1.0,1605153968,-45.58,-72.07
64,atuona,PF,25.46,75,3,5.26,1605153968,-9.8,-139.03
65,bambous virieux,MU,25.56,83,40,2.1,1605153968,-20.34,57.76
66,abu kamal,SY,16.61,62,8,0.9,1605153968,34.45,40.92
67,saint george,US,7.22,45,1,1.5,1605153968,37.1,-113.58
68,mao,ES,16.0,82,33,2.1,1605153968,39.89,4.27
69,butaritari,KI,27.62,77,100,6.01,1605153969,3.07,172.79
70,pangnirtung,CA,-5.64,94,100,5.4,1605153969,66.15,-65.71
71,narsaq,GL,-5.36,80,0,3.08,1605153969,60.92,-46.05
72,carutapera,BR,25.17,88,100,2.36,1605153862,-1.2,-46.02
73,ilulissat,GL,-11.95,93,98,3.11,1605153795,69.22,-51.1
74,bakel,SN,25.56,18,0,4.67,1605153969,14.9,-12.46
75,tiksi,RU,-16.13,92,99,1.93,1605153969,71.69,128.87
76,qaqortoq,GL,-4.32,82,0,2.82,1605153681,60.72,-46.03
77,bredasdorp,ZA,16.67,82,2,2.24,1605153970,-34.53,20.04
78,bluff,NZ,14.44,79,40,8.49,1605153970,-46.6,168.33
79,riachao das neves,BR,21.2,69,0,0.66,1605153970,-11.75,-44.91
80,cap malheureux,MU,25.56,68,3,3.13,1605153970,-19.98,57.61
81,monroe,US,8.89,70,75,3.6,1605153840,43.15,-77.68
82,erenhot,CN,3.08,69,0,1.18,1605153970,43.65,111.98
83,esperance,AU,17.0,63,90,4.1,1605153970,-33.87,121.9
84,hithadhoo,MV,28.65,68,98,0.74,1605153819,-0.6,73.08
85,mount gambier,AU,17.0,72,90,8.2,1605153971,-37.83,140.77
86,port hardy,CA,6.0,86,75,4.6,1605153774,50.7,-127.42
87,cidreira,BR,20.31,91,99,1.95,1605153971,-30.18,-50.21
88,teya,RU,-2.61,94,92,7.9,1605153971,60.38,92.63
89,muros,ES,13.33,81,75,3.1,1605153971,42.78,-9.06
90,marquette,US,1.11,79,0,0.45,1605153869,46.53,-87.63
91,brae,GB,11.0,93,100,10.3,1605153971,60.4,-1.35
92,barzas,RU,-1.0,63,75,5.0,1605153971,55.72,86.32
93,champerico,GT,25.75,87,55,4.27,1605153752,14.3,-91.92
94,olinda,BR,26.0,74,40,4.1,1605153972,-8.01,-34.86
95,kitob,UZ,10.72,74,100,0.98,1605153972,39.08,66.83
96,enshi,CN,20.75,46,0,0.49,1605153673,30.3,109.48
97,kiama,AU,27.22,85,100,5.78,1605153972,-34.68,150.87
98,san carlos de bariloche,AR,11.0,66,0,4.1,1605153814,-41.15,-71.31
99,airai,TL,27.3,44,98,2.18,1605153972,-8.93,125.41
100,avarua,CK,25.0,78,20,4.1,1605153972,-21.21,-159.78
101,luderitz,NA,16.01,63,0,4.22,1605153972,-26.65,15.16
102,puerto ayora,EC,20.0,88,90,2.09,1605153972,-0.74,-90.35
103,namibe,AO,21.53,83,14,1.59,1605153973,-15.2,12.15
104,cape town,ZA,17.22,82,0,2.6,1605153867,-33.93,18.42
105,qaanaaq,GL,-15.23,72,7,4.35,1605153973,77.48,-69.36
106,ban nahin,LA,28.16,40,90,1.98,1605153973,18.24,104.21
107,noyemberyan,AM,8.0,100,90,2.6,1605153973,41.17,45.0
108,yellowknife,CA,-10.0,78,75,8.2,1605153973,62.46,-114.35
109,kindu,CD,19.6,96,93,1.13,1605153973,-2.95,25.95
110,husavik,IS,-4.0,79,0,3.1,1605153973,66.04,-17.34
111,kot addu,PK,17.0,82,20,2.28,1605153974,30.47,70.97
112,te anau,NZ,20.99,36,5,2.62,1605153974,-45.42,167.72
113,qianjiang,CN,20.42,39,0,2.34,1605153974,30.42,112.89
114,haverfordwest,GB,11.67,81,67,10.8,1605153974,51.8,-4.97
115,amazar,RU,-2.16,89,100,2.18,1605153974,53.86,120.88
116,minudasht,IR,11.0,93,90,1.27,1605153974,37.23,55.37
117,nanortalik,GL,-1.17,82,0,0.89,1605153975,60.14,-45.24
118,aryanah,TN,17.0,88,20,1.0,1605153975,36.86,10.19
119,aborlan,PH,31.0,70,75,3.1,1605153975,9.44,118.55
120,pasighat,IN,26.52,41,0,1.12,1605153975,28.07,95.33
121,bengkulu,ID,31.1,58,100,2.88,1605153940,-3.8,102.27
122,bweyogerere,UG,16.88,95,86,0.83,1605153975,0.36,32.67
123,samarinda,ID,34.69,46,100,2.09,1605153976,-0.5,117.15
124,mujiayingzi,CN,10.92,39,0,6.42,1605153976,42.12,118.78
125,geraldton,AU,22.0,46,0,6.2,1605153963,-28.77,114.6
126,souillac,MU,23.0,83,40,2.1,1605153976,-20.52,57.52
127,kirkuk,IQ,17.25,60,0,1.59,1605153843,35.47,44.39
128,vila velha,BR,25.0,83,75,2.6,1605153685,-20.33,-40.29
129,tabuk,PH,25.3,88,100,5.31,1605153976,17.42,121.44
130,hamilton,US,5.0,80,1,5.1,1605153686,39.18,-84.53
131,maneromango,TZ,26.0,88,75,2.6,1605153977,-7.2,38.78
132,lubango,AO,16.7,72,100,0.8,1605153977,-14.92,13.49
133,san cristobal,VE,19.38,91,99,1.39,1605153684,7.77,-72.22
134,provideniya,RU,-1.0,92,90,2.0,1605153977,64.38,-173.3
135,galesong,ID,32.0,66,20,4.1,1605153977,-5.32,119.37
136,san jose,US,12.22,73,100,1.38,1605153714,37.34,-121.89
137,quatre cocos,MU,25.56,83,40,2.1,1605153977,-20.21,57.76
138,medicine hat,CA,-13.0,84,20,3.6,1605153605,50.05,-110.67
139,lagoa,PT,16.11,57,100,3.21,1605153978,39.05,-27.98
140,amarante,BR,27.64,52,86,0.39,1605153978,-6.24,-42.85
141,georgetown,MY,30.0,83,20,3.1,1605153529,5.41,100.34
142,juneau,US,2.0,88,90,8.2,1605153978,58.3,-134.42
143,tasiilaq,GL,-8.02,78,4,2.76,1605153979,65.61,-37.64
144,westport,US,17.78,100,90,3.22,1605153979,41.14,-73.36
145,beyneu,KZ,-0.99,94,27,3.57,1605153979,45.32,55.2
146,watsa,CD,16.51,100,17,0.78,1605153980,3.04,29.54
147,port elizabeth,ZA,16.0,93,0,3.1,1605153980,-33.92,25.57
148,sao joao da barra,BR,22.97,92,100,2.7,1605153980,-21.64,-41.05
149,banjarmasin,ID,33.0,63,40,1.0,1605153981,-3.32,114.59
150,vaini,TO,26.0,83,75,5.1,1605153981,-21.2,-175.2
151,mbalmayo,CM,21.0,100,75,1.5,1605153981,3.52,11.5
152,bara,NG,21.89,31,72,3.04,1605153981,10.37,10.73
153,vryburg,ZA,21.02,47,14,1.51,1605153981,-26.96,24.73
154,torbay,CA,8.33,93,90,6.7,1605153916,47.67,-52.73
155,barrow,US,-7.0,85,90,6.7,1605153981,71.29,-156.79
156,nome,US,1.0,98,90,1.98,1605153981,64.5,-165.41
157,yulara,AU,34.0,7,0,2.6,1605153982,-25.24,130.99
158,batemans bay,AU,23.33,65,88,3.13,1605153716,-35.72,150.18
159,kassala,SD,22.81,79,0,3.71,1605153982,15.45,36.4
160,kruisfontein,ZA,12.22,94,0,1.85,1605153982,-34.0,24.73
161,turukhansk,RU,-7.9,94,100,4.73,1605153982,65.82,87.98
162,porto walter,BR,23.37,91,92,0.72,1605153982,-8.27,-72.74
163,port stanley,FK,7.0,93,75,18.0,1605153982,-51.7,-57.85
164,menongue,AO,17.04,90,99,1.62,1605153982,-14.66,17.69
165,sagone,FR,12.0,81,0,3.1,1605153983,42.12,8.7
166,jaguey grande,CU,23.0,100,20,1.5,1605153983,22.53,-81.13
167,fortuna,US,7.0,100,1,2.1,1605153983,40.6,-124.16
168,tuatapere,NZ,14.44,79,20,8.49,1605153983,-46.13,167.68
169,chateauroux,FR,13.0,76,90,5.7,1605153787,46.82,1.7
170,velingara,SN,23.05,23,0,1.83,1605153983,13.15,-14.12
171,angoche,MZ,26.35,77,47,0.76,1605153984,-16.23,39.91
172,henties bay,NA,14.44,89,2,0.89,1605153984,-22.12,14.28
173,saint-louis,SN,27.75,16,17,4.96,1605153984,16.33,-15.0
174,guerrero negro,MX,16.7,64,0,4.32,1605153984,27.98,-114.06
175,ibra,OM,22.54,57,0,0.14,1605153984,22.69,58.53
176,victoria,HK,26.67,33,0,2.6,1605153852,22.29,114.16
177,morgan city,US,23.0,88,90,2.6,1605153984,29.7,-91.21
178,kaitangata,NZ,16.11,59,81,4.47,1605153985,-46.28,169.85
179,porto santo,PT,18.0,77,20,2.17,1605153985,33.07,-16.34
180,pevek,RU,-8.58,95,96,6.49,1605153985,69.7,170.31
181,bandarbeyla,SO,24.58,78,100,7.23,1605153985,9.49,50.81
182,tombouctou,ML,23.89,20,0,4.12,1605153985,20.0,-3.0
183,mahuva,IN,26.37,39,0,5.58,1605153985,21.09,71.76
184,kovur,IN,24.28,95,100,5.61,1605153985,14.48,79.98
185,sainte-anne-des-monts,CA,10.0,76,76,11.3,1605153985,49.12,-66.49
186,porbandar,IN,20.0,68,0,5.1,1605153986,21.64,69.61
187,sorong,ID,28.03,76,80,1.54,1605153986,-0.88,131.25
188,kodiak,US,6.0,70,1,1.5,1605153986,57.79,-152.41
189,dingle,PH,29.5,77,100,5.73,1605153986,11.0,122.67
190,kavieng,PG,29.28,70,100,3.02,1605153986,-2.57,150.8
191,codrington,AU,17.17,73,71,5.72,1605153986,-38.27,141.97
192,dalvik,IS,-4.0,79,0,3.1,1605153986,65.97,-18.53
193,kieta,PG,28.71,77,93,3.56,1605153986,-6.22,155.63
194,guarapari,BR,25.0,83,75,2.6,1605153986,-20.67,-40.5
195,shaowu,CN,23.0,37,0,0.85,1605153987,27.34,117.48
196,lasa,IT,1.0,62,5,2.1,1605153987,46.62,10.7
197,castro,BR,16.39,96,100,1.34,1605153987,-24.79,-50.01
198,labuhan,ID,32.02,60,100,5.24,1605153987,-6.88,112.21
199,north battleford,CA,-20.0,83,1,2.1,1605153481,52.78,-108.28
200,carnarvon,AU,23.0,53,0,8.7,1605153987,-24.87,113.63
201,goure,NE,21.67,34,26,3.58,1605153988,13.98,10.27
202,san patricio,US,23.33,88,20,2.6,1605153988,28.02,-97.52
203,barcelona,ES,15.0,87,20,3.6,1605153793,41.39,2.16
204,bull savanna,JM,24.21,85,100,2.18,1605153988,17.89,-77.59
205,lebu,CL,11.02,86,7,5.8,1605153988,-37.62,-73.65
206,port moresby,PG,31.0,62,40,10.3,1605153988,-9.44,147.18
207,banda aceh,ID,29.75,69,31,4.83,1605153988,5.56,95.32
208,akyab,MM,28.7,60,0,1.86,1605153989,20.15,92.9
209,mareeba,AU,30.0,48,75,3.6,1605153989,-17.0,145.43
210,north platte,US,3.89,55,1,2.6,1605153832,41.12,-100.77
211,severo-kurilsk,RU,3.0,79,95,12.26,1605153989,50.68,156.12
212,iquique,CL,17.0,72,0,2.6,1605153726,-20.22,-70.14
213,bajil,YE,25.53,73,0,1.86,1605153989,15.06,43.29
214,ponta do sol,PT,19.0,72,75,2.1,1605153989,32.67,-17.1
215,zyryanka,RU,-26.05,89,52,0.22,1605153989,65.75,150.85
216,savannah bight,HN,27.72,68,53,0.26,1605153724,16.45,-85.85
217,kahului,US,27.0,57,40,9.8,1605153907,20.89,-156.47
218,roald,NO,12.0,71,100,3.6,1605153990,62.58,6.13
219,kavaratti,IN,29.0,66,20,2.1,1605153990,10.57,72.64
220,dire,ML,20.69,32,0,0.81,1605153990,12.28,-10.97
221,tazovskiy,RU,-19.95,92,35,3.47,1605153990,67.47,78.7
222,pringsewu,ID,31.98,54,95,2.71,1605153795,-5.36,104.97
223,isangel,VU,28.0,74,75,5.1,1605153991,-19.55,169.27
224,boyolangu,ID,31.04,61,80,2.47,1605153991,-8.12,111.89
225,pacific grove,US,11.11,87,75,2.71,1605153991,36.62,-121.92
226,beian,NO,7.0,75,0,9.3,1605153991,63.66,9.57
227,ilhabela,BR,22.27,89,100,3.57,1605153991,-23.78,-45.36
228,kokologo,BF,21.0,46,0,1.5,1605153991,12.19,-1.89
229,san antonio del norte,HN,22.78,93,20,0.77,1605153991,13.88,-87.7
230,ballina,AU,27.78,57,5,9.8,1605153991,-28.87,153.57
231,palmer,US,18.0,100,90,4.6,1605153991,42.16,-72.33
232,mingyue,CN,13.77,42,80,5.77,1605153992,43.11,128.92
233,fort-shevchenko,KZ,5.32,65,97,3.83,1605153992,44.51,50.26
234,sao sebastiao,BR,22.16,88,100,3.48,1605153703,-23.76,-45.41
235,maumere,ID,31.23,63,62,1.32,1605153992,-8.62,122.21
236,bathsheba,BB,27.0,83,40,7.2,1605153992,13.22,-59.52
237,kinangan,PH,30.0,66,75,1.5,1605153992,6.3,125.58
238,mahon,ES,16.0,82,33,2.1,1605153968,39.89,4.27
239,mehamn,NO,5.44,71,18,4.57,1605153993,71.04,27.85
240,tura,IN,25.95,52,0,0.39,1605153993,25.52,90.22
241,northam,GB,10.56,96,73,3.58,1605153993,51.03,-4.22
242,pemangkat,ID,29.14,73,65,3.23,1605153993,1.17,108.97
243,yongan,CN,10.7,42,0,1.97,1605153993,39.7,113.69
244,cervo,ES,11.67,88,58,1.79,1605153993,43.67,-7.41
245,paamiut,GL,-3.9,79,0,4.66,1605153993,61.99,-49.67
246,cayenne,GF,24.0,100,20,5.54,1605153993,4.93,-52.33
247,ancud,CL,12.22,93,46,1.0,1605153993,-41.87,-73.82
248,cabo san lucas,MX,21.11,68,5,2.6,1605153994,22.89,-109.91
249,kananga,CD,19.96,89,99,0.95,1605153994,-5.9,22.42
250,norwich,GB,11.0,81,80,5.1,1605153965,52.63,1.3
251,eureka,US,6.67,91,0,1.45,1605153739,40.8,-124.16
252,stromness,GB,11.0,87,100,10.8,1605153994,58.97,-3.3
253,putina,PE,7.96,70,100,1.56,1605153994,-15.47,-69.43
254,katsuura,JP,12.78,58,75,5.1,1605153994,35.13,140.3
255,panzhihua,CN,22.57,48,18,0.68,1605153994,26.59,101.71
256,riberalta,BO,22.3,95,59,0.61,1605153994,-10.98,-66.1
257,areosa,PT,16.67,87,0,4.6,1605153995,41.72,-8.86
258,shingu,JP,19.0,59,20,3.1,1605153995,33.73,135.98
259,mayumba,GA,25.51,88,99,2.26,1605153995,-3.43,10.66
260,olafsvik,IS,3.2,89,100,5.96,1605153995,64.89,-23.71
261,bluefield,US,17.22,93,100,0.89,1605153949,37.27,-81.22
262,arona,ES,21.11,77,20,5.1,1605153995,28.1,-16.68
263,vestmannaeyjar,IS,4.76,78,100,12.79,1605153995,63.44,-20.27
264,staraya kulatka,RU,-3.8,97,0,2.94,1605153996,52.72,47.62
265,montepuez,MZ,23.22,74,98,2.11,1605153996,-13.13,39.0
266,boca do acre,BR,23.75,89,95,0.86,1605153996,-8.75,-67.4
267,thompson,CA,-19.0,77,75,3.1,1605153605,55.74,-97.86
268,witu,KE,23.0,100,1,1.6,1605153996,-2.39,40.44
269,maniitsoq,GL,-7.07,88,99,6.21,1605153996,65.42,-52.9
270,mayo,US,21.11,97,90,3.1,1605153996,38.89,-76.51
271,shubarkuduk,KZ,-2.41,96,81,5.06,1605153997,49.14,56.49
272,chumikan,RU,-3.62,94,97,3.29,1605153997,54.72,135.31
273,miri,MY,32.0,70,40,1.5,1605153997,4.41,114.01
274,cabra,ES,10.56,81,100,0.72,1605153997,37.47,-4.44
275,shimoda,JP,13.0,66,75,8.2,1605153997,34.67,138.95
276,faanui,PF,26.1,73,100,3.98,1605153997,-16.48,-151.75
277,takoradi,GH,25.57,84,0,1.99,1605153997,4.88,-1.76
278,valdivia,CL,9.0,100,75,0.5,1605153997,-39.81,-73.25
279,rawson,AR,19.23,64,99,8.03,1605153998,-43.3,-65.1
280,madingou,CG,22.94,90,51,0.28,1605153998,-4.15,13.55
281,batagay,RU,-21.26,89,92,1.21,1605153998,67.63,134.63
282,ampanihy,MG,24.07,71,2,3.25,1605153999,-24.7,44.75
283,batagay-alyta,RU,-20.25,88,11,0.66,1605153999,67.8,130.41
284,sesheke,ZM,21.44,73,95,3.01,1605153999,-17.48,24.3
285,ayna,PE,16.63,79,99,0.13,1605154000,-12.65,-73.92
286,cairns,AU,30.0,48,75,3.6,1605154000,-16.92,145.77
287,preobrazheniye,RU,9.98,84,64,4.97,1605154001,42.9,133.91
288,iqaluit,CA,-5.0,67,75,2.6,1605153841,63.75,-68.51
289,dahod,IN,23.77,29,0,3.03,1605154001,22.83,74.27
290,upington,ZA,19.0,25,0,1.5,1605154001,-28.45,21.26
291,southbridge,US,17.78,97,100,3.94,1605154001,42.08,-72.03
292,sibolga,ID,30.86,58,100,1.33,1605154001,1.74,98.78
293,xiongzhou,CN,23.59,33,0,2.87,1605154001,25.12,114.3
294,kysyl-syr,RU,-10.4,96,99,2.6,1605154001,63.9,122.76
295,eskisehir,TR,-2.0,100,90,1.5,1605153751,39.78,30.52
296,nemuro,JP,8.0,45,0,5.1,1605154002,43.32,145.57
297,acarau,BR,26.15,83,5,6.68,1605154002,-2.89,-40.12
298,floro,NO,11.0,76,100,8.7,1605153854,61.6,5.03
299,yumen,CN,7.2,41,51,7.11,1605154002,40.28,97.2
300,sisimiut,GL,-7.99,91,100,7.01,1605154002,66.94,-53.67
301,sitka,US,5.0,80,90,7.7,1605153843,57.05,-135.33
302,malangali,TZ,18.16,73,40,2.19,1605154002,-8.57,34.85
303,le moule,GP,23.0,94,0,2.73,1605154003,16.33,-61.35
304,morden,CA,-4.0,92,99,4.6,1605153537,49.19,-98.1
305,nurota,UZ,8.0,81,100,3.1,1605154003,40.56,65.69
306,santa helena de goias,BR,24.3,73,92,1.13,1605154003,-17.81,-50.6
307,natal,BR,26.0,74,40,5.1,1605154003,-5.79,-35.21
308,subtanjalla,PE,18.0,88,0,4.6,1605154003,-14.02,-75.76
309,ruwi,OM,22.0,83,0,1.0,1605154003,23.6,58.55
310,novoagansk,RU,-12.23,95,82,2.4,1605154003,61.94,76.66
311,burley,US,-2.0,74,1,7.2,1605154003,42.54,-113.79
312,kabinda,CD,19.5,95,100,1.48,1605154004,-6.13,24.48
313,steinbach,DE,8.0,100,75,2.1,1605154004,50.17,8.57
314,lompoc,US,12.0,87,75,2.1,1605154004,34.64,-120.46
315,sao filipe,CV,26.57,69,0,1.75,1605154004,14.9,-24.5
316,mena,UA,-1.47,96,44,1.3,1605154004,51.52,32.22
317,dunedin,NZ,16.67,69,83,3.58,1605153787,-45.87,170.5
318,soloneshnoye,RU,1.46,86,99,1.18,1605154004,51.65,84.32
319,buraydah,SA,18.0,100,0,2.1,1605154004,26.33,43.98
320,yilan,TW,23.89,95,100,1.87,1605154005,24.76,121.75
321,mudhol,IN,23.71,57,76,6.1,1605154005,16.35,75.28
322,karratha,AU,35.5,17,0,6.99,1605154005,-20.74,116.85
323,nago,JP,25.0,61,90,7.2,1605153891,26.59,127.98
324,concordia,AR,18.33,71,0,1.34,1605153975,-31.39,-58.02
325,talnakh,RU,-16.0,84,40,7.0,1605154005,69.49,88.4
326,saint peters,US,4.44,61,1,1.12,1605154005,38.8,-90.63
327,santo tomas,PH,26.0,94,90,3.1,1605154005,14.11,121.14
328,taoudenni,ML,23.29,22,0,5.42,1605153729,22.68,-3.98
329,paita,PE,17.54,84,99,3.49,1605154006,-5.09,-81.11
330,vardo,NO,-3.0,79,0,4.1,1605154006,70.37,31.11
331,acapulco,MX,27.0,78,5,1.5,1605153776,16.86,-99.89
332,japura,ID,31.79,60,51,2.15,1605154006,-0.32,102.35
333,medea,DZ,10.0,93,20,2.6,1605154006,36.26,2.75
334,ucluelet,CA,6.11,84,100,0.89,1605153954,48.93,-125.55
335,marau,BR,16.83,97,3,1.95,1605154006,-28.45,-52.2
336,sola,VU,31.0,74,75,2.6,1605154007,-13.88,167.55
337,petropavlovsk-kamchatskiy,RU,2.0,74,75,3.0,1605154007,53.05,158.65
338,valley city,US,-5.0,85,75,8.7,1605154007,46.92,-98.0
339,ahipara,NZ,17.51,62,45,3.78,1605154007,-35.17,173.17
340,alice springs,AU,36.0,8,0,5.1,1605153841,-23.7,133.88
341,poum,NC,24.71,72,4,4.02,1605154007,-20.23,164.02
342,presidente epitacio,BR,21.84,80,75,0.55,1605154007,-21.76,-52.12
343,cuxhaven,DE,8.0,100,84,3.6,1605153833,53.87,8.69
344,canutama,BR,23.66,93,95,0.7,1605154008,-6.53,-64.38
345,linxia,CN,10.48,48,0,1.37,1605154008,35.6,103.21
346,lata,PT,15.0,87,92,1.33,1605154008,40.16,-8.33
347,leshukonskoye,RU,-3.19,97,44,3.33,1605154008,64.9,45.76
348,sinazongwe,ZM,23.12,79,97,3.54,1605154008,-17.26,27.46
349,lulea,SE,1.0,92,100,1.89,1605153958,65.58,22.15
350,leningradskiy,RU,-4.54,97,100,8.76,1605154008,69.38,178.42
351,saint anthony,US,1.0,96,1,3.1,1605154008,45.02,-93.22
352,dauriya,RU,-2.05,90,0,8.48,1605154009,49.93,116.87
353,dondaicha,IN,24.55,27,0,2.04,1605154009,21.33,74.57
354,okha,RU,-1.19,93,84,2.15,1605154009,53.57,142.95
355,arequipa,PE,11.32,52,42,0.27,1605154009,-16.4,-71.53
356,sinop,TR,4.45,81,23,2.24,1605154009,41.77,34.87
357,guozhen,CN,18.51,44,56,1.44,1605154009,34.37,107.36
358,pervomayskiy,RU,-1.3,92,83,2.35,1605154010,53.25,40.29
359,suruc,TR,9.0,61,0,3.6,1605154010,36.98,38.42
360,itaituba,BR,24.95,80,42,0.29,1605154010,-4.28,-55.98
361,ananas,HT,21.2,95,100,1.51,1605154010,19.25,-71.96
362,kropotkin,RU,0.73,88,6,2.91,1605154010,45.44,40.58
363,egvekinot,RU,-8.83,95,100,6.31,1605154010,66.32,-179.17
364,marsh harbour,BS,26.13,78,66,10.97,1605154010,26.54,-77.06
365,surt,LY,19.63,74,31,2.03,1605154010,31.21,16.59
366,danjiangkou,CN,20.4,37,0,1.58,1605154011,32.54,111.51
367,gannan,CN,6.31,59,65,7.12,1605154011,47.91,123.5
368,zeya,RU,-6.62,89,100,1.69,1605154011,53.75,127.27
369,padang,ID,31.1,55,75,1.78,1605154011,-0.95,100.35
370,ambon,ID,32.0,70,40,3.6,1605154011,-3.7,128.18
371,xuddur,SO,22.57,87,6,3.66,1605154011,4.12,43.89
372,arlit,NE,19.61,26,0,3.39,1605154011,18.74,7.39
373,benghazi,LY,19.07,79,1,4.65,1605153987,32.12,20.07
374,upernavik,GL,-10.07,86,97,3.91,1605154011,72.79,-56.15
375,raga,SS,20.67,35,0,1.84,1605154012,8.46,25.68
376,bagdarin,RU,-3.34,80,0,1.56,1605154012,54.43,113.6
377,izhma,RU,-2.64,95,100,4.99,1605154012,65.01,53.91
378,palaikastron,GR,18.33,66,6,5.36,1605154012,35.2,26.25
379,aklavik,CA,-16.0,71,10,2.6,1605154012,68.22,-135.01
380,vila franca do campo,PT,15.0,67,75,2.1,1605154012,37.72,-25.43
381,chuy,UY,15.83,93,35,3.2,1605154012,-33.7,-53.46
382,plettenberg bay,ZA,16.39,76,0,1.73,1605154013,-34.05,23.37
383,ketchikan,US,5.0,100,90,13.9,1605154013,55.34,-131.65
384,the valley,AI,25.0,83,20,5.1,1605153819,18.22,-63.06
385,moctezuma,MX,14.82,38,0,0.45,1605154013,29.8,-109.67
386,qasigiannguit,GL,-13.2,89,79,2.74,1605154013,68.82,-51.19
387,nedryhayliv,UA,-1.14,97,48,0.33,1605154013,50.83,33.88
388,piacabucu,BR,23.6,81,8,3.5,1605154013,-10.41,-36.43
389,cochrane,CA,-11.11,84,1,2.1,1605153627,51.18,-114.47
390,punta alta,AR,17.95,76,71,3.87,1605154014,-38.88,-62.07
391,hatillo,PR,23.89,94,100,0.45,1605154014,18.49,-66.83
392,polazna,RU,-3.0,92,75,5.0,1605154014,58.29,56.41
393,kautokeino,NO,-5.76,95,0,3.91,1605154014,69.01,23.04
394,simpang,ID,32.57,55,100,2.06,1605154014,-1.27,104.08
395,naze,JP,25.0,65,75,10.3,1605154014,28.37,129.48
396,alofi,NU,28.0,65,40,4.1,1605153882,-19.06,-169.92
397,panormos,GR,17.78,85,66,1.79,1605154015,35.42,24.69
398,kirakira,SB,29.46,71,50,3.1,1605154015,-10.45,161.92
399,cotonou,BJ,26.44,83,44,3.33,1605154015,6.37,2.42
400,werda,BW,23.2,46,0,4.3,1605154015,-25.27,23.28
401,tommot,RU,-2.85,96,100,2.45,1605154015,58.96,126.29
402,otjimbingwe,NA,19.55,32,0,1.56,1605154015,-22.35,16.13
403,puerto del rosario,ES,20.0,82,0,2.1,1605154015,28.5,-13.86
404,chapais,CA,-2.0,92,90,4.6,1605154016,49.78,-74.85
405,gresham,US,6.11,93,40,1.66,1605153762,45.5,-122.43
406,plouzane,FR,10.0,93,0,3.1,1605153767,48.38,-4.62
407,bowen,AU,29.0,37,9,5.1,1605154016,-20.02,148.23
408,nadym,RU,-17.97,93,61,4.07,1605154016,65.53,72.52
409,hirado,JP,19.44,55,20,1.5,1605154016,33.36,129.55
410,avera,US,23.0,85,90,3.1,1605154016,33.19,-82.53
411,sobolevo,RU,-0.58,96,100,1.49,1605154017,54.43,31.9
412,oranjemund,NA,16.68,59,0,1.99,1605154017,-28.55,16.43
413,san quintin,MX,6.67,11,25,2.24,1605154017,30.48,-115.95
414,mananjary,MG,24.39,74,44,4.8,1605154017,-21.22,48.33
415,ndungu,TZ,23.13,77,54,0.56,1605154017,-4.37,38.05
416,baswa,IN,23.61,27,0,2.32,1605154017,27.15,76.58
417,kerema,PG,28.6,70,20,3.81,1605154017,-7.96,145.78
418,anyama,CI,24.0,94,20,1.0,1605154018,5.49,-4.05
419,raybag,IN,23.05,57,22,5.42,1605154018,16.48,74.78
420,gingoog,PH,30.0,74,88,1.79,1605154018,8.82,125.1
421,ust-barguzin,RU,-0.09,91,3,2.38,1605154019,53.45,108.98
422,mexticacan,MX,16.99,36,0,2.22,1605154020,21.27,-102.78
423,boguchany,RU,1.56,82,93,7.37,1605154020,58.38,97.45
424,yar-sale,RU,-15.7,94,87,4.2,1605154021,66.83,70.83
425,san juan,AR,25.59,41,100,1.55,1605154021,-31.54,-68.54
426,svetlogorsk,BY,-0.06,95,86,1.71,1605154021,52.63,29.73
427,abu samrah,SY,15.54,68,46,1.63,1605154021,35.3,37.18
428,jose de freitas,BR,26.0,78,0,3.1,1605154021,-4.76,-42.58
429,grindavik,IS,2.0,93,75,5.1,1605154021,63.84,-22.43
430,seydi,TM,9.09,61,100,4.25,1605154021,39.48,62.91
431,honiara,SB,31.0,70,40,2.6,1605154021,-9.43,159.95
432,aitape,PG,26.71,79,100,2.52,1605154021,-3.14,142.35
433,saint-joseph,RE,25.0,57,20,2.6,1605154022,-21.37,55.62
434,tezu,IN,27.15,39,0,1.32,1605154022,27.92,96.17
435,yeniseysk,RU,-0.42,93,89,6.71,1605153816,58.45,92.17
436,san fernando,PH,25.0,94,90,8.2,1605154022,15.03,120.69
437,coffs harbour,AU,29.44,65,17,12.9,1605153949,-30.3,153.13
438,la palma,US,16.0,67,1,1.5,1605154022,33.85,-118.05
439,ikongo,MG,22.94,78,81,1.27,1605154022,-21.88,47.43
440,gunjur,GM,23.0,100,0,0.29,1605154023,13.2,-16.73
441,aguimes,ES,21.0,77,20,3.6,1605154023,27.91,-15.45
442,guanica,PR,23.33,93,100,4.02,1605154023,17.97,-66.91
443,chandrakona,IN,27.58,47,0,4.07,1605154023,22.73,87.52
444,saldanha,ZA,15.0,72,0,1.5,1605154023,-33.01,17.94
445,puri,IN,27.0,61,75,3.6,1605154023,19.8,85.85
446,belmonte,BR,23.0,83,0,2.1,1605154023,-15.86,-38.88
447,las tunas,CU,26.0,83,75,3.6,1605153968,20.96,-76.95
448,iguape,BR,21.64,94,100,1.45,1605154024,-24.71,-47.56
449,bosaso,SO,25.29,70,5,3.25,1605153944,11.28,49.18
450,maceio,BR,21.0,94,20,2.1,1605154024,-9.67,-35.74
451,ponta delgada,PT,15.0,67,75,2.1,1605153866,37.73,-25.67
452,tatvan,TR,3.58,75,45,2.04,1605154024,38.51,42.28
453,tonantins,BR,24.74,83,65,0.74,1605154024,-2.87,-67.8
454,fort saint james,CA,-5.3,97,100,1.2,1605154025,54.43,-124.25
455,kalmunai,LK,28.69,74,100,2.26,1605154025,7.42,81.82
456,morehead,US,7.22,70,1,1.5,1605153728,37.27,-87.18
457,quesnel,CA,-10.0,92,100,1.0,1605153605,53.0,-122.5
458,camana,PE,17.31,75,28,2.55,1605154025,-16.62,-72.71
459,chardara,KZ,9.25,68,100,4.55,1605154025,41.25,67.97
460,azangaro,PE,6.68,77,100,3.08,1605154025,-14.92,-70.22
461,wabana,CA,8.0,93,90,6.7,1605154025,47.63,-52.95
462,lososina,RU,5.14,64,69,1.27,1605154026,49.0,140.31
463,dunmore east,IE,7.78,88,27,0.45,1605154026,52.15,-6.99
464,conde,BR,24.0,83,20,2.6,1605154026,-7.26,-34.91
465,usolye,RU,-4.44,94,100,4.12,1605154026,59.43,56.68
466,coquimbo,CL,11.78,89,16,1.38,1605153663,-29.95,-71.34
467,keti bandar,PK,26.5,21,0,6.15,1605154026,24.14,67.45
468,antalaha,MG,23.89,68,13,2.64,1605154026,-14.9,50.28
469,sistranda,NO,7.0,75,0,9.3,1605154026,63.73,8.83
470,pecos,US,12.0,32,1,1.24,1605154027,31.42,-103.49
471,burnie,AU,17.78,59,68,8.49,1605153910,-41.07,145.92
472,sain alto,MX,15.24,39,1,3.11,1605154027,23.58,-103.25
473,kikwit,CD,20.43,96,100,0.28,1605154027,-5.04,18.82
474,aksha,RU,0.48,79,0,3.37,1605154027,50.28,113.29
475,plainview,US,19.0,93,90,3.1,1605153867,40.78,-73.47
476,arman,RU,-14.51,84,0,4.44,1605154027,59.7,150.17
477,progreso,MX,24.44,94,75,2.6,1605154027,21.28,-89.67
478,iralaya,HN,26.01,86,79,0.67,1605154028,15.0,-83.23
479,stratford-upon-avon,GB,9.44,93,87,1.79,1605154028,52.19,-1.71
480,jinxiang,CN,19.22,62,36,6.54,1605154028,27.43,120.61
481,karakulino,RU,-3.26,93,83,4.83,1605154028,56.01,53.71
482,nuristan,AF,-1.59,68,57,1.08,1605154028,35.3,70.83
483,umm lajj,SA,22.49,55,0,4.08,1605154028,25.02,37.27
484,batetskiy,RU,3.96,95,100,2.64,1605154028,58.65,30.3
485,karema,TZ,22.05,76,98,1.72,1605154028,-6.82,30.44
486,yatou,CN,17.28,59,22,6.42,1605154029,37.15,122.38
487,kenai,US,2.0,93,90,1.5,1605154029,60.55,-151.26
488,elizabeth city,US,24.0,94,90,4.1,1605154029,36.29,-76.25
489,zhezkazgan,KZ,-3.0,79,90,8.0,1605154029,47.8,67.71
490,hirara,JP,25.0,60,75,8.2,1605154029,24.8,125.28
491,college,US,-3.89,85,75,0.88,1605154030,64.86,-147.8
492,cintalapa,MX,20.95,92,39,0.28,1605154030,16.7,-93.73
493,meadow lake,US,3.33,40,1,2.6,1605153724,34.8,-106.54
494,zhigansk,RU,-15.25,94,100,5.6,1605154030,66.77,123.37
495,kununurra,AU,42.0,23,35,7.7,1605154030,-15.77,128.73
496,rudbar,AF,22.52,22,96,2.92,1605154030,30.15,62.6
497,sangar,RU,-16.82,91,100,4.3,1605154030,63.92,127.47
498,hambantota,LK,28.0,94,40,1.5,1605153909,6.12,81.12
499,hefei,CN,21.67,52,0,2.0,1605154030,31.86,117.28
500,nioro,GM,23.66,29,0,1.25,1605154031,13.35,-15.75
501,nishihara,JP,25.0,53,90,6.2,1605154031,26.18,127.76
502,koscierzyna,PL,4.44,93,75,3.6,1605154031,54.12,17.98
503,caiaponia,BR,21.15,78,36,1.54,1605154031,-16.96,-51.81
504,sakaiminato,JP,17.0,55,20,6.2,1605153736,35.55,133.23
505,dawei,MM,28.07,59,44,5.71,1605153766,14.08,98.2
506,lavrentiya,RU,-0.14,97,100,6.47,1605154031,65.58,-171.0
507,longyearbyen,SJ,8.0,87,75,18.0,1605154032,78.22,15.64
508,goderich,CA,5.0,64,0,4.6,1605153676,43.75,-81.72
509,fort nelson,CA,-18.0,84,75,1.0,1605154032,58.81,-122.7
510,husainabad,IN,26.92,44,0,1.26,1605154032,24.53,84.02
511,chicama,PE,17.29,83,95,1.52,1605154032,-7.84,-79.15
512,yuci,CN,14.0,41,0,1.0,1605153929,37.68,112.73
513,tibati,CM,19.88,54,4,0.59,1605154032,6.47,12.63
514,hasaki,JP,13.0,58,75,5.1,1605154032,35.73,140.83
515,makakilo city,US,28.0,58,20,4.6,1605154032,21.35,-158.09
516,marawi,PH,30.0,74,93,1.79,1605154033,8.0,124.29
517,thunder bay,CA,-1.67,100,90,2.43,1605153846,48.4,-89.32
518,shumskiy,RU,2.25,78,100,2.51,1605154033,54.83,99.13
519,ulladulla,AU,27.0,47,0,4.1,1605154033,-35.35,150.47
520,copiapo,CL,14.0,76,1,4.1,1605154033,-27.37,-70.33
521,zhuanghe,CN,20.0,58,81,0.89,1605154033,39.7,122.99
522,portland,US,6.11,81,40,1.5,1605153994,45.52,-122.68
523,buritis,BR,23.4,70,44,0.58,1605154033,-15.62,-46.42
524,riyadh,SA,20.0,40,0,2.1,1605154026,24.69,46.72
525,killybegs,IE,6.11,93,51,1.79,1605154034,54.63,-8.45
526,half moon bay,US,12.0,87,1,4.1,1605154034,37.46,-122.43
527,tiznit,MA,18.78,38,100,0.53,1605154034,29.58,-9.5
528,oskarshamn,SE,5.56,93,100,1.88,1605154034,57.26,16.45
529,ulaanbaatar,MN,-3.0,73,0,2.51,1605154034,47.91,106.88
530,sur,OM,25.27,53,0,1.67,1605154034,22.57,59.53
531,porteirinha,BR,20.31,77,48,1.9,1605154034,-15.74,-43.03
532,knysna,ZA,12.0,100,0,2.1,1605154035,-34.04,23.05
533,kulu,TR,4.71,79,0,3.14,1605154035,39.1,33.08
534,kundiawa,PG,22.54,71,80,1.41,1605154035,-6.02,144.97
535,abeche,TD,24.2,21,13,7.73,1605154035,13.83,20.83
536,kashi,CN,5.0,25,0,5.0,1605154035,39.45,75.98
537,gamba,GA,25.42,90,96,2.99,1605154035,-2.65,10.0
538,luancheng,CN,13.0,54,0,2.0,1605154035,37.88,114.65
539,eyl,SO,24.74,75,81,5.82,1605154036,7.98,49.82
540,madison,US,15.0,93,90,3.6,1605154036,34.73,-86.57
541,bichura,RU,2.26,76,0,1.48,1605154036,50.59,107.6
542,yerbogachen,RU,-6.68,96,100,3.6,1605154036,61.28,108.01
543,phalombe,MW,20.7,86,97,1.06,1605154036,-15.81,35.65
544,bontang,ID,28.69,69,77,3.1,1605154036,0.13,117.5
545,lorengau,PG,30.03,63,95,2.94,1605154036,-2.02,147.27
546,la rioja,ES,8.0,100,75,2.36,1605154036,42.25,-2.5
547,gravdal,NO,7.78,81,12,4.39,1605154037,68.12,13.5
548,vanavara,RU,-3.08,96,100,6.42,1605154037,60.34,102.28
549,coahuayana,MX,24.01,83,4,1.15,1605154037,18.73,-103.68
550,xichang,CN,18.31,57,42,0.54,1605153923,27.9,102.26
551,laiwu,CN,18.34,39,0,4.21,1605154037,36.19,117.66
552,kongolo,CD,19.73,95,90,0.66,1605154037,-5.38,27.0
553,gat,IL,18.89,77,12,2.01,1605154037,31.61,34.76
554,winslow,US,-1.0,42,1,2.1,1605154038,35.02,-110.7
555,quang ngai,VN,24.73,87,100,4.58,1605154038,15.12,108.8
556,merauke,ID,29.77,64,74,5.92,1605154038,-8.47,140.33
557,itarema,BR,26.32,81,12,6.87,1605154039,-2.92,-39.92
558,novyy yarychiv,UA,4.0,93,90,2.0,1605154039,49.9,24.31
559,camocim,BR,26.21,81,11,5.66,1605154039,-2.9,-40.84
560,yenagoa,NG,23.92,94,0,0.93,1605154040,4.92,6.26
561,mancio lima,BR,22.92,96,92,0.37,1605154040,-7.61,-72.9
562,panlaitan,PH,28.29,81,100,9.15,1605154040,12.12,119.85
563,namatanai,PG,28.84,73,92,2.73,1605154040,-3.67,152.43
564,salinopolis,BR,25.85,86,100,3.99,1605154041,-0.61,-47.36
565,karaton,ID,34.44,59,40,3.1,1605154041,-6.34,106.1
566,taybad,IR,9.06,61,97,6.04,1605154041,34.74,60.78
567,ayan,RU,-0.88,88,98,0.99,1605154041,56.45,138.17
